name,tel,address,商店編號,lng,lat,X,Y
全家八堵車站店,224567770,基隆市暖暖區八堵路１４２號,58557,121.729071,25.1083368,371023.007,2777790.096
全家基隆暖東店,224582882,基隆市暖暖區暖暖街１６３號,16872,121.7362927,25.09968,371742.253,2776824.534
全家基隆暖盛店,224584927,基隆市暖暖區暖暖街２２０號壹樓及夾層,61336,121.7347754,25.0983015,371587.811,2776673.3
全家基隆暖鑫店,224586460,基隆市暖暖區暖暖街４６１號壹樓,56917,121.7370173,25.092916,371808.319,2776074.75
全家基隆暖錠店,224594800,基隆市暖暖區源遠路１８９號,52684,121.751348,25.0984327,373259.22,2776672.275
全家基隆瑞發店,224583547,基隆市暖暖區源遠路２７５－１１號,62899,121.755617,25.099041,373690.349,2776735.669
全家基隆吉市店,224587239,基隆市暖暖區碇內街１８８－９號壹樓及夾層,54942,121.7543956,25.0921482,373560.137,2775973.443
全家基隆暖港店,224574786,基隆市暖暖區過港路２５４號,16419,121.7338797,25.1102241,371509.865,2777994.555
