name,tel,address,商店編號,lng,lat,X,Y
全家基隆信一店,224241255,基隆市信義區信一路１４８號,11239,121.746929,25.1295975,372845.628,2780127.846
全家基隆信義店,224255383,基隆市信義區信二路２３６－２號,56213,121.757949,25.128501,373955.543,2779996.135
全家基隆深美店,224685554,基隆市信義區教忠街１０８號壹樓,61078,121.7786331,25.1363204,376048.761,2780843.073
全家基隆東信店,224669537,基隆市信義區東信路５號,19086,121.7679258,25.1277137,374960.611,2779899.719
全家基隆新正信店,224665413,基隆市信義區正信路１８１號,52807,121.7602967,25.1321856,374195.99,2780402.02
全家基隆新深溪店,224664970,基隆市信義區深溪路５９號,54610,121.7821203,25.1327119,376396.709,2780440.261
全家基隆新澳坑店,224683722,基隆市信義區深澳坑路１０７號,53384,121.7858038,25.1261332,376761.508,2779708.34
